{
  "structure:clinique des 3 vallées:bédarieux": {
    "lat": 43.6155109,
    "lng": 3.1576143,
    "display_name": "Bédarieux, Béziers, Hérault, Occitanie, France métropolitaine, 34600, France",
    "precision": "commune_fallback"
  },
  "structure:clinique pasteur:pézenas": {
    "lat": 43.4611777,
    "lng": 3.4228323,
    "display_name": "Pézenas, Béziers, Hérault, Occitanie, France métropolitaine, 34120, France",
    "precision": "commune_fallback"
  },
  "structure:clinique saint privat:boujan-sur-libron": {
    "lat": 43.3721159,
    "lng": 3.2483732,
    "display_name": "Boujan-sur-Libron, Béziers, Hérault, Occitanie, France métropolitaine, 34760, France",
    "precision": "commune_fallback"
  },
  "structure:ch de béziers:béziers": {
    "lat": 43.3040322,
    "lng": 3.3307115,
    "display_name": "Chemin de Béziers, Portiragnes, Béziers, Hérault, Occitanie, France métropolitaine, 34420, France",
    "precision": "entity"
  },
  "ehpad:ehpa les floréales:pinet": {
    "lat": 43.4068,
    "lng": 3.5072,
    "display_name": "Pinet, Béziers, Hérault, Occitanie, France métropolitaine, 34850, France",
    "precision": "commune_fallback"
  },
  "ehpad:ehpad amandiers:nézignan-l'évêque": {
    "lat": 43.4236392,
    "lng": 3.4049571,
    "display_name": "EHPAD Les Amandiers, Avenue de Tourbes, Castanie, Nézignan-l'Évêque, Béziers, Hérault, Occitanie, France métropolitaine, 34120, France",
    "precision": "entity"
  },
  "ehpad:ehpad hl pézenas:pézenas": {
    "lat": 43.4611777,
    "lng": 3.4228323,
    "display_name": "Pézenas, Béziers, Hérault, Occitanie, France métropolitaine, 34120, France",
    "precision": "commune_fallback"
  },
  "ehpad:ehpad les floréales:pinet": {
    "lat": 43.4044967,
    "lng": 3.4976216,
    "display_name": "EHPAD Les Floréales, 1, Rue des Floréales, Pinet, Béziers, Hérault, Occitanie, France métropolitaine, 34850, France",
    "precision": "entity"
  },
  "ehpad:ehpad les jardins de brescou:agde": {
    "lat": 43.3124696,
    "lng": 3.4707789,
    "display_name": "Agde, Béziers, Hérault, Occitanie, France métropolitaine, 34300, France",
    "precision": "commune_fallback"
  },
  "ehpad:ehpad orpea sainte clotilde:caux": {
    "lat": 43.509654,
    "lng": 3.3635759,
    "display_name": "Caux, Béziers, Hérault, Occitanie, France métropolitaine, 34720, France",
    "precision": "commune_fallback"
  },
  "ehpad:ehpad sainte amélie:florensac": {
    "lat": 43.3827078,
    "lng": 3.4631135,
    "display_name": "Florensac, Béziers, Hérault, Occitanie, France métropolitaine, 34510, France",
    "precision": "commune_fallback"
  },
  "ehpad:ehpad gérard soulatges:aspiran": {
    "lat": 43.5676308,
    "lng": 3.4474952,
    "display_name": "EHPAD Gérard Soulatges, 1, Rue Saute la Paille, Aspiran, Lodève, Hérault, Occitanie, France métropolitaine, 34800, France",
    "precision": "entity"
  },
  "ehpad:ehpad jeanne delanoue:fontès": {
    "lat": 43.5472432,
    "lng": 3.378264,
    "display_name": "EHPAD Jeanne Delanoue, D 124, Plaine du Cabanis, Fontès, Lodève, Hérault, Occitanie, France métropolitaine, 34320, France",
    "precision": "entity"
  },
  "ehpad:ehpad vincent badie:paulhan": {
    "lat": 43.542761,
    "lng": 3.4627616,
    "display_name": "EHPAD Vincent Badie, 8, Route de Campagnan, Paulhan, Lodève, Hérault, Occitanie, France métropolitaine, 34230, France",
    "precision": "entity"
  },
  "ehpad:ehpad la rebondine:la salvetat-sur-agout": {
    "lat": 43.6015523,
    "lng": 2.7029207,
    "display_name": "La Salvetat-sur-Agout, Béziers, Hérault, Occitanie, France métropolitaine, 34330, France",
    "precision": "commune_fallback"
  },
  "ehpad:ehpad lou redoundel:la salvetat-sur-agout": {
    "lat": 43.6015523,
    "lng": 2.7029207,
    "display_name": "La Salvetat-sur-Agout, Béziers, Hérault, Occitanie, France métropolitaine, 34330, France",
    "precision": "commune_fallback"
  },
  "ehpad:ch saint-pons - frescati:saint-pons-de-thomières": {
    "lat": 43.4891622,
    "lng": 2.7598776,
    "display_name": "Saint-Pons-de-Thomières, Béziers, Hérault, Occitanie, France métropolitaine, 34220, France",
    "precision": "commune_fallback"
  },
  "ehpad:ehpad le minervois:olonzac": {
    "lat": 43.2816682,
    "lng": 2.7270502,
    "display_name": "EHPAD Le Minervois, Chemin des Rabonnières, Olonzac, Béziers, Hérault, Occitanie, France métropolitaine, 34210, France",
    "precision": "entity"
  },
  "ehpad:eepha les treilles:saint-gervais-sur-mare": {
    "lat": 43.6534475,
    "lng": 3.0415138,
    "display_name": "Saint-Gervais-sur-Mare, Béziers, Hérault, Occitanie, France métropolitaine, 34610, France",
    "precision": "commune_fallback"
  },
  "ehpad:ehpad le château de la roche:saint-gervais-sur-mare": {
    "lat": 43.6534475,
    "lng": 3.0415138,
    "display_name": "Saint-Gervais-sur-Mare, Béziers, Hérault, Occitanie, France métropolitaine, 34610, France",
    "precision": "commune_fallback"
  },
  "ehpad:ehpad le val fleuri:lamalou-les-bains": {
    "lat": 43.5962,
    "lng": 3.08514,
    "display_name": "Lamalou-les-Bains, Béziers, Hérault, Occitanie, France métropolitaine, 34240, France",
    "precision": "commune_fallback"
  },
  "ehpad:ehpad les treilles:saint-gervais-sur-mare": {
    "lat": 43.6534475,
    "lng": 3.0415138,
    "display_name": "Saint-Gervais-sur-Mare, Béziers, Hérault, Occitanie, France métropolitaine, 34610, France",
    "precision": "commune_fallback"
  },
  "ehpad:ehpad le château de la verrerie:le bousquet-d'orb": {
    "lat": 43.6946849,
    "lng": 3.164829,
    "display_name": "Le Bousquet-d'Orb, Béziers, Hérault, Occitanie, France métropolitaine, 34260, France",
    "precision": "commune_fallback"
  },
  "ehpad:hl bédarieux - accueil de jour alzheimer:bédarieux": {
    "lat": 43.6155109,
    "lng": 3.1576143,
    "display_name": "Bédarieux, Béziers, Hérault, Occitanie, France métropolitaine, 34600, France",
    "precision": "commune_fallback"
  },
  "ehpad:hl bédarieux - ehpad:bédarieux": {
    "lat": 43.6155109,
    "lng": 3.1576143,
    "display_name": "Bédarieux, Béziers, Hérault, Occitanie, France métropolitaine, 34600, France",
    "precision": "commune_fallback"
  },
  "ehpad:hl bédarieux - usld:bédarieux": {
    "lat": 43.6155109,
    "lng": 3.1576143,
    "display_name": "Bédarieux, Béziers, Hérault, Occitanie, France métropolitaine, 34600, France",
    "precision": "commune_fallback"
  },
  "ehpad:maison de retraite les pins:cessenon-sur-orb": {
    "lat": 43.4493882,
    "lng": 3.0467161,
    "display_name": "Cessenon-sur-Orb, Béziers, Hérault, Occitanie, France métropolitaine, 34460, France",
    "precision": "commune_fallback"
  },
  "ehpad:mrpa saint-chinianais:saint-chinian": {
    "lat": 43.4215,
    "lng": 2.94677,
    "display_name": "Saint-Chinian, Béziers, Hérault, Occitanie, France métropolitaine, 34360, France",
    "precision": "commune_fallback"
  },
  "ehpad:ehpad les jardins des tuileries:bessan": {
    "lat": 43.3606788,
    "lng": 3.4263361,
    "display_name": "Bessan, Béziers, Hérault, Occitanie, France métropolitaine, 34550, France",
    "precision": "commune_fallback"
  },
  "ehpad:ehpad les lavandes:florensac": {
    "lat": 43.3827078,
    "lng": 3.4631135,
    "display_name": "Florensac, Béziers, Hérault, Occitanie, France métropolitaine, 34510, France",
    "precision": "commune_fallback"
  },
  "ehpad:ehpad l'estagnol:vias": {
    "lat": 43.3091843,
    "lng": 3.4232654,
    "display_name": "EHPAD L'Estagnol, 15, Chemin de l'Estagnol, Vias, Béziers, Hérault, Occitanie, France métropolitaine, 34450, France",
    "precision": "entity"
  },
  "ehpad:ehpad l'oustalet:montagnac": {
    "lat": 43.4810656,
    "lng": 3.4836914,
    "display_name": "Montagnac, Béziers, Hérault, Occitanie, France métropolitaine, 34530, France",
    "precision": "commune_fallback"
  },
  "ehpad:ehpad mireille vidal:saint-thibéry": {
    "lat": 43.3956927,
    "lng": 3.4203405,
    "display_name": "EHPAD Mireille Vidal, Chemin des Tiradous, Saint-Thibéry, Béziers, Hérault, Occitanie, France métropolitaine, 34630, France",
    "precision": "entity"
  },
  "ehpad:ehpad montplaisir:saint-pargoire": {
    "lat": 43.5263747,
    "lng": 3.5222951,
    "display_name": "EHPAD Montplaisir, Chemin de Montplaisir, Saint-Pargoire, Lodève, Hérault, Occitanie, France métropolitaine, 34230, France",
    "precision": "entity"
  },
  "ehpad:accueil de jour alzheimer entour'âge:béziers": {
    "lat": 43.3426562,
    "lng": 3.2131307,
    "display_name": "Béziers, Hérault, Occitanie, France métropolitaine, 34500, France",
    "precision": "commune_fallback"
  },
  "ehpad:ch béziers - ehpad pinède:béziers": {
    "lat": 43.3426562,
    "lng": 3.2131307,
    "display_name": "Béziers, Hérault, Occitanie, France métropolitaine, 34500, France",
    "precision": "commune_fallback"
  },
  "ehpad:ehpa les jardins d'eulalie:montblanc": {
    "lat": 43.3958648,
    "lng": 3.3672892,
    "display_name": "Montblanc, Béziers, Hérault, Occitanie, France métropolitaine, 34290, France",
    "precision": "commune_fallback"
  },
  "ehpad:ehpa les terrasses du caroux:corneilhan": {
    "lat": 43.3996,
    "lng": 3.19318,
    "display_name": "Corneilhan, Béziers, Hérault, Occitanie, France métropolitaine, 34490, France",
    "precision": "commune_fallback"
  },
  "ehpad:ehpad la méridienne:béziers": {
    "lat": 43.338432,
    "lng": 3.2561704,
    "display_name": "EHPAD La Méridienne, 12, Rue de Monte Cassino, Saint-Jean d'Aureilhan, Béziers, Hérault, Occitanie, France métropolitaine, 34500, France",
    "precision": "entity"
  },
  "ehpad:ehpad l'ensolelhada:servian": {
    "lat": 43.427043,
    "lng": 3.2983696,
    "display_name": "Servian, Béziers, Hérault, Occitanie, France métropolitaine, 34290, France",
    "precision": "commune_fallback"
  },
  "ehpad:ehpad les cascades:béziers": {
    "lat": 43.3328212,
    "lng": 3.2500921,
    "display_name": "EHPAD Les Cascades Jean Vignalou, 150, Rue Maurice Béjart, Le Mail, Béziers, Hérault, Occitanie, France métropolitaine, 34500, France",
    "precision": "entity"
  },
  "ehpad:ehpad les jardins du canalet:villeneuve-lès-béziers": {
    "lat": 43.3162817,
    "lng": 3.2797511,
    "display_name": "Villeneuve-lès-Béziers, Béziers, Hérault, Occitanie, France métropolitaine, 34420, France",
    "precision": "commune_fallback"
  },
  "ehpad:ehpad saint-antoine:béziers": {
    "lat": 43.3365591,
    "lng": 3.2228268,
    "display_name": "EHPAD Saint-Antoine, Rue du Tunnel, Béziers, Hérault, Occitanie, France métropolitaine, 34500, France",
    "precision": "entity"
  },
  "ehpad:usld perréal:béziers": {
    "lat": 43.3426562,
    "lng": 3.2131307,
    "display_name": "Béziers, Hérault, Occitanie, France métropolitaine, 34500, France",
    "precision": "commune_fallback"
  },
  "ehpad:aj estagnol:vias": {
    "lat": 43.3096693,
    "lng": 3.4233007,
    "display_name": "Chemin de l'Estagnol, Vias, Béziers, Hérault, Occitanie, France métropolitaine, 34450, France",
    "precision": "entity"
  },
  "ehpad:aj hl pézenas:pézenas": {
    "lat": 43.4611777,
    "lng": 3.4228323,
    "display_name": "Pézenas, Béziers, Hérault, Occitanie, France métropolitaine, 34120, France",
    "precision": "commune_fallback"
  },
  "ehpad:eepha louis fonoll:nissan-lez-enserune": {
    "lat": 43.2900051,
    "lng": 3.1279229,
    "display_name": "Nissan-lez-Enserune, Béziers, Hérault, Occitanie, France métropolitaine, 34440, France",
    "precision": "commune_fallback"
  },
  "ehpad:ehpad la roselière vendres:vendres": {
    "lat": 43.2686109,
    "lng": 3.2237054,
    "display_name": "Vendres, Béziers, Hérault, Occitanie, France métropolitaine, 34350, France",
    "precision": "commune_fallback"
  },
  "ehpad:ehpad simone de beauvoir:cazouls-lès-béziers": {
    "lat": 43.3857462,
    "lng": 3.1037783,
    "display_name": "EHPAD Simone de Beauvoir, 9, Avenue du Peras, Le Péras, Cazouls-lès-Béziers, Béziers, Hérault, Occitanie, France métropolitaine, 34370, France",
    "precision": "entity"
  },
  "ehpad:ehpad terre blanche:maraussan": {
    "lat": 43.3612416,
    "lng": 3.1609956,
    "display_name": "EHPAD Terre Blanche, Rue de Poussan, Maraussan, Béziers, Hérault, Occitanie, France métropolitaine, 34370, France",
    "precision": "entity"
  },
  "ehpad:ehpad la murelle:laurens": {
    "lat": 43.5225,
    "lng": 3.19507,
    "display_name": "Laurens, Béziers, Hérault, Occitanie, France métropolitaine, 34480, France",
    "precision": "commune_fallback"
  },
  "ehpad:ehpad les tilleuls:murviel-lès-béziers": {
    "lat": 43.4400972,
    "lng": 3.1436776,
    "display_name": "Murviel-lès-Béziers, Béziers, Hérault, Occitanie, France métropolitaine, 34490, France",
    "precision": "commune_fallback"
  },
  "ehpad:ehpad l'orée du pech:thézan-lès-béziers": {
    "lat": 43.4217929,
    "lng": 3.1704075,
    "display_name": "Thézan-lès-Béziers, Béziers, Hérault, Occitanie, France métropolitaine, 34490, France",
    "precision": "commune_fallback"
  },
  "ehpad:eepha les oliviers:saint-chinian": {
    "lat": 43.4215,
    "lng": 2.94677,
    "display_name": "Saint-Chinian, Béziers, Hérault, Occitanie, France métropolitaine, 34360, France",
    "precision": "commune_fallback"
  },
  "ehpad:ehpad de capestang:capestang": {
    "lat": 43.3265792,
    "lng": 3.0457226,
    "display_name": "Capestang, Béziers, Hérault, Occitanie, France métropolitaine, 34310, France",
    "precision": "commune_fallback"
  },
  "ehpad:ehpad les jardins d'adoyra:creissan": {
    "lat": 43.3744,
    "lng": 3.01362,
    "display_name": "Creissan, Béziers, Hérault, Occitanie, France métropolitaine, 34370, France",
    "precision": "commune_fallback"
  },
  "ehpad:ehpa korian lo solelh:béziers": {
    "lat": 43.3426562,
    "lng": 3.2131307,
    "display_name": "Béziers, Hérault, Occitanie, France métropolitaine, 34500, France",
    "precision": "commune_fallback"
  },
  "ehpad:ehpa les jardins de flore:boujan-sur-libron": {
    "lat": 43.3721159,
    "lng": 3.2483732,
    "display_name": "Boujan-sur-Libron, Béziers, Hérault, Occitanie, France métropolitaine, 34760, France",
    "precision": "commune_fallback"
  },
  "ehpad:ehpad la renaissance:béziers": {
    "lat": 43.3310311,
    "lng": 3.1979518,
    "display_name": "EHPAD La Renaissance, R 123, Les Neuf Écluses, Béziers, Hérault, Occitanie, France métropolitaine, 34500, France",
    "precision": "entity"
  },
  "ehpad:ehpad les frères:béziers": {
    "lat": 43.331488,
    "lng": 3.1992032,
    "display_name": "EHPAD Les Frères de Fonséranes, R 123, Les Neuf Écluses, Béziers, Hérault, Occitanie, France métropolitaine, 34500, France",
    "precision": "entity"
  },
  "ehpad:ehpad les jardins de badones:béziers": {
    "lat": 43.3426562,
    "lng": 3.2131307,
    "display_name": "Béziers, Hérault, Occitanie, France métropolitaine, 34500, France",
    "precision": "commune_fallback"
  },
  "ehpad:ehpad louis fonoll:nissan-lez-enserune": {
    "lat": 43.2857305,
    "lng": 3.1213809,
    "display_name": "EHPAD Louis Fonoll, Chemin de Sainte-Eulalie, Domaine de Vénus, Nissan-lez-Enserune, Béziers, Hérault, Occitanie, France métropolitaine, 34440, France",
    "precision": "entity"
  },
  "ehpad:ehpad lou castellas:puisserguier": {
    "lat": 43.3638203,
    "lng": 3.0455976,
    "display_name": "EHPAD Lou Castellas, 8, Avenue de la Prade, Puisserguier, Béziers, Hérault, Occitanie, France métropolitaine, 34620, France",
    "precision": "entity"
  },
  "ehpad:ehpad le manoir:sauvian": {
    "lat": 43.2917,
    "lng": 3.25476,
    "display_name": "Sauvian, Béziers, Hérault, Occitanie, France métropolitaine, 34410, France",
    "precision": "commune_fallback"
  },
  "ehpad:ehpad korian les tamaris:sérignan": {
    "lat": 43.2712684,
    "lng": 3.2713488,
    "display_name": "Ehpad Korian Les Tamaris, Boulevard du Général de Gaulle, Sérignan, Béziers, Hérault, Occitanie, France métropolitaine, 34410, France",
    "precision": "entity"
  },
  "ehpad:ehpad korian lo solelh:béziers": {
    "lat": 43.3426562,
    "lng": 3.2131307,
    "display_name": "Béziers, Hérault, Occitanie, France métropolitaine, 34500, France",
    "precision": "commune_fallback"
  },
  "ehpad:ehpad le mas du moulin:cers": {
    "lat": 43.3232846,
    "lng": 3.3057088,
    "display_name": "Cers, Béziers, Hérault, Occitanie, France métropolitaine, 34420, France",
    "precision": "commune_fallback"
  },
  "ehpad:ehpad les feuillantines:béziers": {
    "lat": 43.3441358,
    "lng": 3.2510251,
    "display_name": "EHPAD Les Feuillantines, 40, Rue Raoul Bayou, Montimaran, Béziers, Hérault, Occitanie, France métropolitaine, 34500, France",
    "precision": "entity"
  },
  "ehpad:ehpad les jardins de flore:boujan-sur-libron": {
    "lat": 43.3658876,
    "lng": 3.2497029,
    "display_name": "EHPAD Les Jardins de Flore, Allée de l'Espinouse, ZAE Le Monestié, Boujan-sur-Libron, Béziers, Hérault, Occitanie, France métropolitaine, 34760, France",
    "precision": "entity"
  },
  "ehpad:ehpad les jardins d'eulalie:montblanc": {
    "lat": 43.3959636,
    "lng": 3.3732529,
    "display_name": "EHPAD Les Jardins d'Eulalie, Rue Marcel Pagnol, Montblanc, Béziers, Hérault, Occitanie, France métropolitaine, 34290, France",
    "precision": "entity"
  },
  "ehpad:ehpad les terrasses du caroux:corneilhan": {
    "lat": 43.401123,
    "lng": 3.1878691,
    "display_name": "EHPAD Les Terrasses du Caroux, Avenue de Thézan, Saint-Sernin, Corneilhan, Béziers, Hérault, Occitanie, France métropolitaine, 34490, France",
    "precision": "entity"
  },
  "ehpad:ehpad la renaissance:montady": {
    "lat": 43.33215,
    "lng": 3.1206569,
    "display_name": "EHPAD La Renaissance, 4, Rue des Mûriers, Montady, Béziers, Hérault, Occitanie, France métropolitaine, 34310, France",
    "precision": "entity"
  },
  "ehpad:ehpad la résidentielle:colombiers": {
    "lat": 43.3078508,
    "lng": 3.1653631,
    "display_name": "EHPAD La Résidentielle, Avenue de Béziers, Parc d'Activités Économiques Cantegals, Colombiers, Béziers, Hérault, Occitanie, France métropolitaine, 34440, France",
    "precision": "entity"
  },
  "ehpad:ehpad la maison ensoleillée:abeilhan": {
    "lat": 43.4472871,
    "lng": 3.2928457,
    "display_name": "EHPAD La Maison Ensoleillée, 3, Rue Marcel Pagnol, Le Moulin à Vent, Abeilhan, Béziers, Hérault, Occitanie, France métropolitaine, 34290, France",
    "precision": "entity"
  },
  "ehpad:ehpad les acacias:magalas": {
    "lat": 43.4724204,
    "lng": 3.2221621,
    "display_name": "Magalas, Béziers, Hérault, Occitanie, France métropolitaine, 34480, France",
    "precision": "commune_fallback"
  },
  "commune:bédarieux:": {
    "lat": 43.6155109,
    "lng": 3.1576143,
    "display_name": "Bédarieux, Béziers, Hérault, Occitanie, France métropolitaine, 34600, France",
    "precision": "entity"
  },
  "commune:lamalou-les-bains:": {
    "lat": 43.5962,
    "lng": 3.08514,
    "display_name": "Lamalou-les-Bains, Béziers, Hérault, Occitanie, France métropolitaine, 34240, France",
    "precision": "entity"
  },
  "commune:hérépian:": {
    "lat": 43.5938976,
    "lng": 3.1151405,
    "display_name": "Hérépian, Béziers, Hérault, Occitanie, France métropolitaine, 34600, France",
    "precision": "entity"
  },
  "commune:le poujol-sur-orb:": {
    "lat": 43.5787306,
    "lng": 3.0620794,
    "display_name": "Le Poujol-sur-Orb, Béziers, Hérault, Occitanie, France métropolitaine, 34600, France",
    "precision": "entity"
  },
  "commune:villemagne-l'argentière:": {
    "lat": 43.6183,
    "lng": 3.12024,
    "display_name": "Villemagne-l'Argentière, Béziers, Hérault, Occitanie, France métropolitaine, 34600, France",
    "precision": "entity"
  },
  "commune:la tour-sur-orb:": {
    "lat": 43.6556503,
    "lng": 3.1491909,
    "display_name": "La Tour-sur-Orb, Béziers, Hérault, Occitanie, France métropolitaine, 34260, France",
    "precision": "entity"
  },
  "commune:le bousquet-d'orb:": {
    "lat": 43.6946849,
    "lng": 3.164829,
    "display_name": "Le Bousquet-d'Orb, Béziers, Hérault, Occitanie, France métropolitaine, 34260, France",
    "precision": "entity"
  },
  "commune:lunas:": {
    "lat": 43.7074524,
    "lng": 3.1943095,
    "display_name": "Lunas, Lunas-les-Châteaux, Béziers, Hérault, Occitanie, France métropolitaine, 34650, France",
    "precision": "entity"
  },
  "commune:dio-et-valquières:": {
    "lat": 43.6694692,
    "lng": 3.2233988,
    "display_name": "Dio-et-Valquières, Lunas-les-Châteaux, Béziers, Hérault, Occitanie, France métropolitaine, 34650, France",
    "precision": "entity"
  },
  "commune:carlencas-et-levas:": {
    "lat": 43.6331,
    "lng": 3.2254,
    "display_name": "Carlencas-et-Levas, Béziers, Hérault, Occitanie, France métropolitaine, 34600, France",
    "precision": "entity"
  },
  "commune:pézènes-les-mines:": {
    "lat": 43.5885,
    "lng": 3.25177,
    "display_name": "Pézènes-les-Mines, Béziers, Hérault, Occitanie, France métropolitaine, 34600, France",
    "precision": "entity"
  },
  "commune:le pradal:": {
    "lat": 43.6269925,
    "lng": 3.1042971,
    "display_name": "Le Pradal, Béziers, Hérault, Occitanie, France métropolitaine, 34600, France",
    "precision": "entity"
  },
  "commune:combes:": {
    "lat": 43.603,
    "lng": 3.0461,
    "display_name": "Combes, Béziers, Hérault, Occitanie, France métropolitaine, 34240, France",
    "precision": "entity"
  },
  "commune:taussac-la-billière:": {
    "lat": 43.6337992,
    "lng": 3.0693646,
    "display_name": "Taussac-la-Billière, Béziers, Hérault, Occitanie, France métropolitaine, 34600, France",
    "precision": "entity"
  },
  "commune:saint-gervais-sur-mare:": {
    "lat": 43.6534475,
    "lng": 3.0415138,
    "display_name": "Saint-Gervais-sur-Mare, Béziers, Hérault, Occitanie, France métropolitaine, 34610, France",
    "precision": "entity"
  },
  "commune:rosis:": {
    "lat": 43.6222084,
    "lng": 3.0045185,
    "display_name": "Rosis, Béziers, Hérault, Occitanie, France métropolitaine, 34610, France",
    "precision": "entity"
  },
  "commune:castanet-le-haut:": {
    "lat": 43.6678657,
    "lng": 2.9726408,
    "display_name": "Castanet-le-Haut, Béziers, Hérault, Occitanie, France métropolitaine, 34610, France",
    "precision": "entity"
  },
  "commune:graissessac:": {
    "lat": 43.6783799,
    "lng": 3.0951125,
    "display_name": "Graissessac, Béziers, Hérault, Occitanie, France métropolitaine, 34260, France",
    "precision": "entity"
  },
  "commune:camplong:": {
    "lat": 43.6721087,
    "lng": 3.1188138,
    "display_name": "Camplong, Béziers, Hérault, Occitanie, France métropolitaine, 34260, France",
    "precision": "entity"
  },
  "commune:avène:": {
    "lat": 43.7574503,
    "lng": 3.0991684,
    "display_name": "Avène, Béziers, Hérault, Occitanie, France métropolitaine, 34260, France",
    "precision": "entity"
  },
  "commune:ceilhes-et-rocozels:": {
    "lat": 43.8040439,
    "lng": 3.1140424,
    "display_name": "Ceilhes-et-Rocozels, Béziers, Hérault, Occitanie, France métropolitaine, 34260, France",
    "precision": "entity"
  },
  "commune:pézenas:": {
    "lat": 43.4611777,
    "lng": 3.4228323,
    "display_name": "Pézenas, Béziers, Hérault, Occitanie, France métropolitaine, 34120, France",
    "precision": "entity"
  },
  "commune:tourbes:": {
    "lat": 43.4442,
    "lng": 3.37936,
    "display_name": "Tourbes, Béziers, Hérault, Occitanie, France métropolitaine, 34120, France",
    "precision": "entity"
  },
  "commune:castelnau-de-guers:": {
    "lat": 43.4336769,
    "lng": 3.4390774,
    "display_name": "Castelnau-de-Guers, Béziers, Hérault, Occitanie, France métropolitaine, 34120, France",
    "precision": "entity"
  },
  "commune:aumes:": {
    "lat": 43.4668,
    "lng": 3.46518,
    "display_name": "Aumes, Béziers, Hérault, Occitanie, France métropolitaine, 34530, France",
    "precision": "entity"
  },
  "commune:montagnac:": {
    "lat": 43.4810656,
    "lng": 3.4836914,
    "display_name": "Montagnac, Béziers, Hérault, Occitanie, France métropolitaine, 34530, France",
    "precision": "entity"
  },
  "commune:lézignan-la-cèbe:": {
    "lat": 43.4943,
    "lng": 3.43839,
    "display_name": "Lézignan-la-Cèbe, Béziers, Hérault, Occitanie, France métropolitaine, 34120, France",
    "precision": "entity"
  },
  "commune:caux:": {
    "lat": 43.509654,
    "lng": 3.3635759,
    "display_name": "Caux, Béziers, Hérault, Occitanie, France métropolitaine, 34720, France",
    "precision": "entity"
  },
  "commune:nizas:": {
    "lat": 43.514,
    "lng": 3.40746,
    "display_name": "Nizas, Béziers, Hérault, Occitanie, France métropolitaine, 34320, France",
    "precision": "entity"
  },
  "commune:alignan-du-vent:": {
    "lat": 43.4698716,
    "lng": 3.3422051,
    "display_name": "Alignan-du-Vent, Béziers, Hérault, Occitanie, France métropolitaine, 34290, France",
    "precision": "entity"
  },
  "commune:neffiès:": {
    "lat": 43.5341595,
    "lng": 3.3311035,
    "display_name": "Neffiès, Béziers, Hérault, Occitanie, France métropolitaine, 34320, France",
    "precision": "entity"
  },
  "commune:roujan:": {
    "lat": 43.5064698,
    "lng": 3.310261,
    "display_name": "Roujan, Béziers, Hérault, Occitanie, France métropolitaine, 34320, France",
    "precision": "entity"
  },
  "commune:margon:": {
    "lat": 43.4874,
    "lng": 3.30684,
    "display_name": "Margon, Béziers, Hérault, Occitanie, France métropolitaine, 34320, France",
    "precision": "entity"
  },
  "commune:pouzolles:": {
    "lat": 43.4829992,
    "lng": 3.2787556,
    "display_name": "Pouzolles, Béziers, Hérault, Occitanie, France métropolitaine, 34480, France",
    "precision": "entity"
  },
  "commune:abeilhan:": {
    "lat": 43.4513,
    "lng": 3.29284,
    "display_name": "Abeilhan, Béziers, Hérault, Occitanie, France métropolitaine, 34290, France",
    "precision": "entity"
  },
  "commune:fontès:": {
    "lat": 43.5391,
    "lng": 3.38151,
    "display_name": "Fontès, Lodève, Hérault, Occitanie, France métropolitaine, 34320, France",
    "precision": "entity"
  },
  "commune:adissan:": {
    "lat": 43.5355,
    "lng": 3.42756,
    "display_name": "Adissan, Béziers, Hérault, Occitanie, France métropolitaine, 34230, France",
    "precision": "entity"
  },
  "commune:paulhan:": {
    "lat": 43.5418008,
    "lng": 3.4604451,
    "display_name": "Paulhan, Lodève, Hérault, Occitanie, France métropolitaine, 34230, France",
    "precision": "entity"
  },
  "commune:usclas-d'hérault:": {
    "lat": 43.518778,
    "lng": 3.4650474,
    "display_name": "Usclas-d'Hérault, Lodève, Hérault, Occitanie, France métropolitaine, 34230, France",
    "precision": "entity"
  },
  "commune:cazouls-d'hérault:": {
    "lat": 43.5060819,
    "lng": 3.457774,
    "display_name": "Cazouls-d'Hérault, Béziers, Hérault, Occitanie, France métropolitaine, 34120, France",
    "precision": "entity"
  },
  "commune:saint-pons-de-mauchiens:": {
    "lat": 43.5136493,
    "lng": 3.514143,
    "display_name": "Saint-Pons-de-Mauchiens, Béziers, Hérault, Occitanie, France métropolitaine, 34230, France",
    "precision": "entity"
  },
  "commune:campagnan:": {
    "lat": 43.537922,
    "lng": 3.4981567,
    "display_name": "Campagnan, Lodève, Hérault, Occitanie, France métropolitaine, 34230, France",
    "precision": "entity"
  },
  "commune:plaissan:": {
    "lat": 43.558,
    "lng": 3.52456,
    "display_name": "Plaissan, Lodève, Hérault, Occitanie, France métropolitaine, 34230, France",
    "precision": "entity"
  },
  "commune:nézignan-l'évêque:": {
    "lat": 43.4210557,
    "lng": 3.4079729,
    "display_name": "Nézignan-l'Évêque, Béziers, Hérault, Occitanie, France métropolitaine, 34120, France",
    "precision": "entity"
  },
  "commune:pinet:": {
    "lat": 43.4068,
    "lng": 3.5072,
    "display_name": "Pinet, Béziers, Hérault, Occitanie, France métropolitaine, 34850, France",
    "precision": "entity"
  },
  "commune:florensac:": {
    "lat": 43.3827078,
    "lng": 3.4631135,
    "display_name": "Florensac, Béziers, Hérault, Occitanie, France métropolitaine, 34510, France",
    "precision": "entity"
  },
  "commune:aspiran:": {
    "lat": 43.5662917,
    "lng": 3.4497645,
    "display_name": "Aspiran, Lodève, Hérault, Occitanie, France métropolitaine, 34800, France",
    "precision": "entity"
  },
  "commune:boujan-sur-libron:": {
    "lat": 43.3721159,
    "lng": 3.2483732,
    "display_name": "Boujan-sur-Libron, Béziers, Hérault, Occitanie, France métropolitaine, 34760, France",
    "precision": "entity"
  },
  "commune:servian:": {
    "lat": 43.427043,
    "lng": 3.2983696,
    "display_name": "Servian, Béziers, Hérault, Occitanie, France métropolitaine, 34290, France",
    "precision": "entity"
  },
  "commune:bassan:": {
    "lat": 43.4114394,
    "lng": 3.2531346,
    "display_name": "Bassan, Béziers, Hérault, Occitanie, France métropolitaine, 34290, France",
    "precision": "entity"
  },
  "commune:lieuran-lès-béziers:": {
    "lat": 43.4188948,
    "lng": 3.2371874,
    "display_name": "Lieuran-lès-Béziers, Béziers, Hérault, Occitanie, France métropolitaine, 34290, France",
    "precision": "entity"
  },
  "commune:espondeilhan:": {
    "lat": 43.4412,
    "lng": 3.26415,
    "display_name": "Espondeilhan, Béziers, Hérault, Occitanie, France métropolitaine, 34290, France",
    "precision": "entity"
  },
  "commune:puissalicon:": {
    "lat": 43.4578937,
    "lng": 3.235739,
    "display_name": "Puissalicon, Béziers, Hérault, Occitanie, France métropolitaine, 34480, France",
    "precision": "entity"
  },
  "commune:puimisson:": {
    "lat": 43.4395,
    "lng": 3.2102,
    "display_name": "Puimisson, Béziers, Hérault, Occitanie, France métropolitaine, 34480, France",
    "precision": "entity"
  },
  "commune:corneilhan:": {
    "lat": 43.3996,
    "lng": 3.19318,
    "display_name": "Corneilhan, Béziers, Hérault, Occitanie, France métropolitaine, 34490, France",
    "precision": "entity"
  },
  "commune:thézan-lès-béziers:": {
    "lat": 43.4217929,
    "lng": 3.1704075,
    "display_name": "Thézan-lès-Béziers, Béziers, Hérault, Occitanie, France métropolitaine, 34490, France",
    "precision": "entity"
  },
  "commune:pailhès:": {
    "lat": 43.4308687,
    "lng": 3.1864793,
    "display_name": "Pailhès, Béziers, Hérault, Occitanie, France métropolitaine, 34490, France",
    "precision": "entity"
  },
  "commune:maraussan:": {
    "lat": 43.3696,
    "lng": 3.15399,
    "display_name": "Maraussan, Béziers, Hérault, Occitanie, France métropolitaine, 34370, France",
    "precision": "entity"
  },
  "commune:maureilhan:": {
    "lat": 43.3565052,
    "lng": 3.1207097,
    "display_name": "Maureilhan, Béziers, Hérault, Occitanie, France métropolitaine, 34370, France",
    "precision": "entity"
  },
  "commune:lignan-sur-orb:": {
    "lat": 43.3828,
    "lng": 3.17294,
    "display_name": "Lignan-sur-Orb, Béziers, Hérault, Occitanie, France métropolitaine, 34490, France",
    "precision": "entity"
  },
  "commune:montady:": {
    "lat": 43.3349069,
    "lng": 3.1254244,
    "display_name": "Montady, Béziers, Hérault, Occitanie, France métropolitaine, 34310, France",
    "precision": "entity"
  },
  "commune:colombiers:": {
    "lat": 43.3141,
    "lng": 3.13966,
    "display_name": "Colombiers, Béziers, Hérault, Occitanie, France métropolitaine, 34440, France",
    "precision": "entity"
  },
  "commune:nissan-lez-enserune:": {
    "lat": 43.2900051,
    "lng": 3.1279229,
    "display_name": "Nissan-lez-Enserune, Béziers, Hérault, Occitanie, France métropolitaine, 34440, France",
    "precision": "entity"
  },
  "commune:lespignan:": {
    "lat": 43.2743,
    "lng": 3.16982,
    "display_name": "Lespignan, Béziers, Hérault, Occitanie, France métropolitaine, 34710, France",
    "precision": "entity"
  },
  "commune:villeneuve-lès-béziers:": {
    "lat": 43.3162817,
    "lng": 3.2797511,
    "display_name": "Villeneuve-lès-Béziers, Béziers, Hérault, Occitanie, France métropolitaine, 34420, France",
    "precision": "entity"
  },
  "commune:cers:": {
    "lat": 43.3232846,
    "lng": 3.3057088,
    "display_name": "Cers, Béziers, Hérault, Occitanie, France métropolitaine, 34420, France",
    "precision": "entity"
  },
  "commune:sauvian:": {
    "lat": 43.2917,
    "lng": 3.25476,
    "display_name": "Sauvian, Béziers, Hérault, Occitanie, France métropolitaine, 34410, France",
    "precision": "entity"
  },
  "commune:montblanc:": {
    "lat": 43.3958648,
    "lng": 3.3672892,
    "display_name": "Montblanc, Béziers, Hérault, Occitanie, France métropolitaine, 34290, France",
    "precision": "entity"
  },
  "commune:magalas:": {
    "lat": 43.4724204,
    "lng": 3.2221621,
    "display_name": "Magalas, Béziers, Hérault, Occitanie, France métropolitaine, 34480, France",
    "precision": "entity"
  },
  "commune:portiragnes:": {
    "lat": 43.3036,
    "lng": 3.33477,
    "display_name": "Portiragnes, Béziers, Hérault, Occitanie, France métropolitaine, 34420, France",
    "precision": "entity"
  },
  "commune:sérignan:": {
    "lat": 43.2830736,
    "lng": 3.2798682,
    "display_name": "Sérignan, Béziers, Hérault, Occitanie, France métropolitaine, 34410, France",
    "precision": "entity"
  },
  "commune:béziers:": {
    "lat": 43.3426562,
    "lng": 3.2131307,
    "display_name": "Béziers, Hérault, Occitanie, France métropolitaine, 34500, France",
    "precision": "entity"
  },
  "commune:cazouls-lès-béziers:": {
    "lat": 43.3918541,
    "lng": 3.1013558,
    "display_name": "Cazouls-lès-Béziers, Béziers, Hérault, Occitanie, France métropolitaine, 34370, France",
    "precision": "entity"
  },
  "commune:murviel-lès-béziers:": {
    "lat": 43.4400972,
    "lng": 3.1436776,
    "display_name": "Murviel-lès-Béziers, Béziers, Hérault, Occitanie, France métropolitaine, 34490, France",
    "precision": "entity"
  },
  "commune:puisserguier:": {
    "lat": 43.3679188,
    "lng": 3.0408301,
    "display_name": "Puisserguier, Béziers, Hérault, Occitanie, France métropolitaine, 34620, France",
    "precision": "entity"
  },
  "commune:quarante:": {
    "lat": 43.3469777,
    "lng": 2.960865,
    "display_name": "Quarante, Béziers, Hérault, Occitanie, France métropolitaine, 34310, France",
    "precision": "entity"
  },
  "commune:capestang:": {
    "lat": 43.3265792,
    "lng": 3.0457226,
    "display_name": "Capestang, Béziers, Hérault, Occitanie, France métropolitaine, 34310, France",
    "precision": "entity"
  },
  "commune:poilhes:": {
    "lat": 43.3069,
    "lng": 3.0772,
    "display_name": "Poilhes, Béziers, Hérault, Occitanie, France métropolitaine, 34310, France",
    "precision": "entity"
  },
  "commune:cessenon-sur-orb:": {
    "lat": 43.4493882,
    "lng": 3.0467161,
    "display_name": "Cessenon-sur-Orb, Béziers, Hérault, Occitanie, France métropolitaine, 34460, France",
    "precision": "entity"
  },
  "commune:roquebrun:": {
    "lat": 43.5006,
    "lng": 3.02943,
    "display_name": "Roquebrun, Béziers, Hérault, Occitanie, France métropolitaine, 34460, France",
    "precision": "entity"
  },
  "commune:saint-chinian:": {
    "lat": 43.4215,
    "lng": 2.94677,
    "display_name": "Saint-Chinian, Béziers, Hérault, Occitanie, France métropolitaine, 34360, France",
    "precision": "entity"
  },
  "commune:prades-sur-vernazobre:": {
    "lat": 43.4475,
    "lng": 2.98527,
    "display_name": "Prades-sur-Vernazobre, Béziers, Hérault, Occitanie, France métropolitaine, 34360, France",
    "precision": "entity"
  },
  "commune:cébazan:": {
    "lat": 43.405,
    "lng": 2.97109,
    "display_name": "Cébazan, Béziers, Hérault, Occitanie, France métropolitaine, 34360, France",
    "precision": "entity"
  },
  "commune:pierrerue:": {
    "lat": 43.4274,
    "lng": 2.97642,
    "display_name": "Pierrerue, Béziers, Hérault, Occitanie, France métropolitaine, 34360, France",
    "precision": "entity"
  },
  "commune:babeau-bouldoux:": {
    "lat": 43.4390802,
    "lng": 2.8970587,
    "display_name": "Babeau-Bouldoux, Béziers, Hérault, Occitanie, France métropolitaine, 34360, France",
    "precision": "entity"
  },
  "commune:creissan:": {
    "lat": 43.3744,
    "lng": 3.01362,
    "display_name": "Creissan, Béziers, Hérault, Occitanie, France métropolitaine, 34370, France",
    "precision": "entity"
  },
  "commune:montouliers:": {
    "lat": 43.3376,
    "lng": 2.90769,
    "display_name": "Montouliers, Béziers, Hérault, Occitanie, France métropolitaine, 34310, France",
    "precision": "entity"
  },
  "commune:assignan:": {
    "lat": 43.3979197,
    "lng": 2.8900831,
    "display_name": "Assignan, Béziers, Hérault, Occitanie, France métropolitaine, 34360, France",
    "precision": "entity"
  },
  "commune:cruzy:": {
    "lat": 43.3554503,
    "lng": 2.942256,
    "display_name": "Cruzy, Béziers, Hérault, Occitanie, France métropolitaine, 34310, France",
    "precision": "entity"
  },
  "commune:vias:": {
    "lat": 43.3107683,
    "lng": 3.4201599,
    "display_name": "Vias, Béziers, Hérault, Occitanie, France métropolitaine, 34450, France",
    "precision": "entity"
  },
  "commune:valras-plage:": {
    "lat": 43.2496196,
    "lng": 3.29192,
    "display_name": "Valras-Plage, Béziers, Hérault, Occitanie, France métropolitaine, 34350, France",
    "precision": "entity"
  },
  "commune:vendres:": {
    "lat": 43.2686109,
    "lng": 3.2237054,
    "display_name": "Vendres, Béziers, Hérault, Occitanie, France métropolitaine, 34350, France",
    "precision": "entity"
  },
  "commune:marseillan:": {
    "lat": 43.3567775,
    "lng": 3.5280516,
    "display_name": "Marseillan, Montpellier, Hérault, Occitanie, France métropolitaine, 34340, France",
    "precision": "entity"
  }
}
